[
  {
    "title": "Hello",
    "description": "Yeah",
    "coordinates": {
      "lat": 50,
      "lng": -0.7
    }
  },
  {
    "title": "Test",
    "description": "Problem with road",
    "coordinates": {
      "lat": 0.5,
      "lng": -0.66
    }
  },
  {
    "title": "metamask",
    "description": "test",
    "coordinates": {
      "lat": 53,
      "lng": -0.2
    }
  },
  {
    "title": "",
    "description": "",
    "coordinates": {
      "lat": 51.51794948862318,
      "lng": -0.10044008875237599
    }
  },
  {
    "title": "",
    "description": "",
    "coordinates": {
      "lat": 51.53149395545341,
      "lng": -0.08617254538086705
    }
  },
  {
    "title": "",
    "description": "",
    "coordinates": {
      "lat": 51.524552215462975,
      "lng": -0.08977883351696249
    },
    "proposalId": "29078723474657502900975021268404339820644080849507499787611046539514764310219"
  },
  {
    "title": "",
    "description": "",
    "coordinates": {
      "lat": 51.51878442657495,
      "lng": -0.0890919214910424
    },
    "proposalId": "81371144321132171852033177632061268732604647698741646209010183921137363691148"
  },
  {
    "title": "",
    "description": "",
    "coordinates": {
      "lat": 51.516754845636456,
      "lng": -0.059382976369983805
    },
    "proposalId": "81371144321132171852033177632061268732604647698741646209010183921137363691148"
  },
  {
    "title": "Title",
    "description": "Description",
    "coordinates": {
      "lat": 51.52540664057756,
      "lng": -0.107291436996817
    },
    "proposalId": "81371144321132171852033177632061268732604647698741646209010183921137363691148"
  },
  {
    "title": "Title",
    "description": "Description",
    "coordinates": {
      "lat": 51.52700864445432,
      "lng": -0.04531068406722794
    },
    "proposalId": "81371144321132171852033177632061268732604647698741646209010183921137363691148"
  },
  {
    "title": "Title",
    "description": "Description",
    "coordinates": {
      "lat": 51.525833847122584,
      "lng": -0.037241167757826606
    },
    "proposalId": "81371144321132171852033177632061268732604647698741646209010183921137363691148"
  },
  {
    "title": "Title",
    "description": "Description",
    "coordinates": {
      "lat": 51.52348416152351,
      "lng": -0.08153766154129995
    },
    "proposalId": "81371144321132171852033177632061268732604647698741646209010183921137363691148"
  },
  {
    "title": "Title",
    "description": "Description",
    "coordinates": {
      "lat": 51.532134678095346,
      "lng": -0.14197318794355598
    },
    "proposalId": "81371144321132171852033177632061268732604647698741646209010183921137363691148"
  },
  {
    "title": "Yes",
    "description": "Hello",
    "coordinates": {
      "lat": 51.51931851179038,
      "lng": -0.08600164928693091
    },
    "proposalId": "114366363358240512691511089097882256537797641946402403884939552648155249379665"
  },
  {
    "title": "Road Problem",
    "description": "There is a road problem here",
    "coordinates": {
      "lat": 51.52465901947907,
      "lng": -0.07157953503184934
    },
    "proposalId": "48302979578646021181808724538929357557350363516879634601691850108967915027384"
  },
  {
    "title": "Help",
    "description": "I wnat to do this\n",
    "coordinates": {
      "lat": 51.52166841233309,
      "lng": -0.07827551665026579
    },
    "proposalId": "26841066854316721388262654387055291896286602287295938494032991282947476348215"
  },
  {
    "title": "OpenNO",
    "description": "OpenUEa",
    "coordinates": {
      "lat": 51.522522891558964,
      "lng": -0.06900415748628765
    },
    "proposalId": "102574150669265984118873003887960346455279154842554559617991690323473273779927"
  },
  {
    "title": "Test",
    "description": "Dsdfgsdfgd",
    "coordinates": {
      "lat": 51.535444934752555,
      "lng": -0.17577874801228302
    },
    "proposalId": "87715424191021709521545061378585863431124260859911373575860596384781292634134"
  },
  {
    "title": "fasrhrhsre",
    "description": "hrshrherher",
    "coordinates": {
      "lat": 51.52487262675978,
      "lng": -0.11793055031880774
    },
    "proposalId": "111244710920879157192912683289346771197069229458405897832819402485023015300667"
  },
  {
    "title": "sdrhsdrhsdr",
    "description": "hsrdhsdrhrdhsdrh",
    "coordinates": {
      "lat": 51.53010569212588,
      "lng": -0.020429730467461667
    },
    "proposalId": "57400107037877993301091322549299910186308505390922347597544918500508450689781"
  }
]