[
  {
    "title": "Hello",
    "description": "Yeah",
    "coordinates": {
      "lat": 50,
      "lng": -0.7
    }
  },
  {
    "title": "Test",
    "description": "Problem with road",
    "coordinates": {
      "lat": 0.5,
      "lng": -0.66
    }
  },
  {
    "title": "metamask",
    "description": "test",
    "coordinates": {
      "lat": 53,
      "lng": -0.2
    }
  },
  {
    "title": "",
    "description": "",
    "coordinates": {
      "lat": 51.51794948862318,
      "lng": -0.10044008875237599
    }
  },
  {
    "title": "",
    "description": "",
    "coordinates": {
      "lat": 51.53149395545341,
      "lng": -0.08617254538086705
    }
  },
  {
    "title": "",
    "description": "",
    "coordinates": {
      "lat": 51.524552215462975,
      "lng": -0.08977883351696249
    },
    "proposalId": "29078723474657502900975021268404339820644080849507499787611046539514764310219"
  },
  {
    "title": "",
    "description": "",
    "coordinates": {
      "lat": 51.51878442657495,
      "lng": -0.0890919214910424
    },
    "proposalId": "81371144321132171852033177632061268732604647698741646209010183921137363691148"
  },
  {
    "title": "",
    "description": "",
    "coordinates": {
      "lat": 51.516754845636456,
      "lng": -0.059382976369983805
    },
    "proposalId": "81371144321132171852033177632061268732604647698741646209010183921137363691148"
  },
  {
    "title": "Title",
    "description": "Description",
    "coordinates": {
      "lat": 51.52540664057756,
      "lng": -0.107291436996817
    },
    "proposalId": "81371144321132171852033177632061268732604647698741646209010183921137363691148"
  },
  {
    "title": "Title",
    "description": "Description",
    "coordinates": {
      "lat": 51.52700864445432,
      "lng": -0.04531068406722794
    },
    "proposalId": "81371144321132171852033177632061268732604647698741646209010183921137363691148"
  },
  {
    "title": "Title",
    "description": "Description",
    "coordinates": {
      "lat": 51.525833847122584,
      "lng": -0.037241167757826606
    },
    "proposalId": "81371144321132171852033177632061268732604647698741646209010183921137363691148"
  },
  {
    "title": "Title",
    "description": "Description",
    "coordinates": {
      "lat": 51.52348416152351,
      "lng": -0.08153766154129995
    },
    "proposalId": "81371144321132171852033177632061268732604647698741646209010183921137363691148"
  },
  {
    "title": "Title",
    "description": "Description",
    "coordinates": {
      "lat": 51.532134678095346,
      "lng": -0.14197318794355598
    },
    "proposalId": "81371144321132171852033177632061268732604647698741646209010183921137363691148"
  },
  {
    "title": "Yes",
    "description": "Hello",
    "coordinates": {
      "lat": 51.51931851179038,
      "lng": -0.08600164928693091
    },
    "proposalId": "114366363358240512691511089097882256537797641946402403884939552648155249379665"
  },
  {
    "title": "Road Problem",
    "description": "There is a road problem here",
    "coordinates": {
      "lat": 51.52465901947907,
      "lng": -0.07157953503184934
    },
    "proposalId": "48302979578646021181808724538929357557350363516879634601691850108967915027384"
  },
  {
    "title": "Help",
    "description": "I wnat to do this\n",
    "coordinates": {
      "lat": 51.52166841233309,
      "lng": -0.07827551665026579
    },
    "proposalId": "26841066854316721388262654387055291896286602287295938494032991282947476348215"
  },
  {
    "title": "OpenNO",
    "description": "OpenUEa",
    "coordinates": {
      "lat": 51.522522891558964,
      "lng": -0.06900415748628765
    },
    "proposalId": "102574150669265984118873003887960346455279154842554559617991690323473273779927"
  },
  {
    "title": "Test",
    "description": "Dsdfgsdfgd",
    "coordinates": {
      "lat": 51.535444934752555,
      "lng": -0.17577874801228302
    },
    "proposalId": "87715424191021709521545061378585863431124260859911373575860596384781292634134"
  },
  {
    "title": "fasrhrhsre",
    "description": "hrshrherher",
    "coordinates": {
      "lat": 51.52487262675978,
      "lng": -0.11793055031880774
    },
    "proposalId": "111244710920879157192912683289346771197069229458405897832819402485023015300667"
  },
  {
    "title": "sdrhsdrhsdr",
    "description": "hsrdhsdrhrdhsdrh",
    "coordinates": {
      "lat": 51.53010569212588,
      "lng": -0.020429730467461667
    },
    "proposalId": "57400107037877993301091322549299910186308505390922347597544918500508450689781"
  },
  {
    "title": "Problem",
    "description": "Yes ",
    "coordinates": {
      "lat": 51.51568660881589,
      "lng": -0.06643363842550044
    },
    "proposalId": "62455842645382874036776711195680309507124750006086478240073941603623717944053"
  },
  {
    "title": "Holla",
    "description": "comoestas",
    "coordinates": {
      "lat": 51.52604744889203,
      "lng": -0.11741178275757937
    },
    "proposalId": "34126442867806225728582969580270882361741892152833498165620510197687361311929"
  },
  {
    "title": "yes",
    "description": "yeeess",
    "coordinates": {
      "lat": 51.52850379721948,
      "lng": -0.06574166081708689
    },
    "proposalId": "31389371135938970167102545802708535209125260956789922616391242396888481911677"
  },
  {
    "title": "Road Hazard",
    "description": "There is a road hazard here",
    "coordinates": {
      "lat": 51.52754263322114,
      "lng": -0.0334631265419727
    },
    "proposalId": "40302566617027018656142876977291266953921724364467259373280756716212077323157"
  },
  {
    "title": "test",
    "description": "test",
    "coordinates": {
      "lat": 51.53106680201548,
      "lng": -0.05200611431703362
    },
    "proposalId": "57903735395139325306742784150058903368800032024619965068377228236563612264201"
  },
  {
    "title": "Tests",
    "description": "Hellllo",
    "coordinates": {
      "lat": 51.51632755391457,
      "lng": -0.03294804354821546
    },
    "proposalId": "101713850556306605882191102653099289647436207338892492886322104168692141534807"
  },
  {
    "title": "Road Issue",
    "description": "Road Issue",
    "coordinates": {
      "lat": 51.522309273255594,
      "lng": -0.056641861260808835
    },
    "proposalId": "55579172091473759884827772552066229588963814000077973395288393204075047831583"
  },
  {
    "title": "Testsss",
    "description": "teststst",
    "coordinates": {
      "lat": 51.52914456194564,
      "lng": -0.022818078004422933
    },
    "proposalId": "45591534955203219232128765373404701289069298952361843160998727093191959003615"
  },
  {
    "title": "Open World!",
    "description": "Open World!",
    "coordinates": {
      "lat": 51.52391138610547,
      "lng": -0.030372628579449223
    },
    "proposalId": "66240819809873405916065185444244076635796773483329855571631953330118935404463"
  },
  {
    "title": "Open World!",
    "description": "Open World!",
    "coordinates": {
      "lat": 51.53266860674161,
      "lng": -0.12205740146731926
    },
    "proposalId": "66240819809873405916065185444244076635796773483329855571631953330118935404463"
  },
  {
    "title": "proposalSnapshot",
    "description": "proposalSnapshot",
    "coordinates": {
      "lat": 51.53533815603716,
      "lng": -0.1406003892423802
    },
    "proposalId": "58093097659051046150211748035359809888060021987345592472382680695976714226166"
  },
  {
    "title": "proposalSnapshot",
    "description": "proposalSnapshot",
    "coordinates": {
      "lat": 51.52540664057756,
      "lng": -0.057156944254566085
    },
    "proposalId": "58093097659051046150211748035359809888060021987345592472382680695976714226166"
  },
  {
    "title": "pen World!",
    "description": "pen World!",
    "coordinates": {
      "lat": 51.53330931285069,
      "lng": -0.11399324735288599
    },
    "proposalId": "80756575759455821077951731030137820526915561321427265307488250691483085307415"
  },
  {
    "title": "Open World!",
    "description": "Open World!",
    "coordinates": {
      "lat": 51.51376371940495,
      "lng": -0.05286458597329569
    },
    "proposalId": "66240819809873405916065185444244076635796773483329855571631953330118935404463"
  },
  {
    "title": "Open World!",
    "description": "Open World!",
    "coordinates": {
      "lat": 51.52295012515947,
      "lng": -0.05904558189832266
    },
    "proposalId": "66240819809873405916065185444244076635796773483329855571631953330118935404463"
  },
  {
    "title": "Yea man",
    "description": "Yea man",
    "coordinates": {
      "lat": 51.52647464942482,
      "lng": -0.04273462042950316
    },
    "proposalId": "73907907514850478109834522274030726031876012416852435989670337424248538387691"
  },
  {
    "title": "new",
    "description": "new",
    "coordinates": {
      "lat": 51.50297266764028,
      "lng": -0.03947242813574726
    },
    "proposalId": "5668685072669425144298836451956334150045435006285740225192069619366705765061"
  },
  {
    "title": "now",
    "description": "???",
    "coordinates": {
      "lat": 51.52348416152351,
      "lng": -0.03207638206254471
    },
    "proposalId": "71573045261002712741456833765866572333667233392864467137493509575911312679287"
  },
  {
    "title": "votes 100",
    "description": "votes 100",
    "coordinates": {
      "lat": 51.52957173341966,
      "lng": -0.031217714711502257
    },
    "proposalId": "46505015478857734761950122533039812985893096746363503077852980775268210910140"
  },
  {
    "title": "Your Voting Power: 0",
    "description": "Your Voting Power: 0",
    "coordinates": {
      "lat": 51.539609109272924,
      "lng": -0.12360265044857101
    },
    "proposalId": "12473437708330851066188431238419633071105560747148546330284925449138282143054"
  }
]